{
  "type": "FeatureCollection",
  "features": [
    {
      "type": "Feature",
      "properties": {
        "name": "Main Library",
        "address": "100 Larkin St, San Francisco, CA 94102",
        "hours": "Mon 09:00–18:00; Tue–Thu 09:00–20:00; Fri 12:00–18:00; Sat 10:00–18:00; Sun 12:00–18:00"
      },
      "geometry": {
        "type": "Point",
        "coordinates": [-122.4163, 37.7791]
      }
    },
    {
      "type": "Feature",
      "properties": {
        "name": "Anza Branch",
        "address": "550 37th Ave, San Francisco, CA 94121",
        "hours": "Mon & Thu 10:00–18:00; Tue 10:00–20:00; Wed 13:00–20:00; Fri 13:00–18:00; Sat 10:00–18:00; Sun 13:00–17:00"
      },
      "geometry": {
        "type": "Point",
        "coordinates": [-122.4971, 37.7809]
      }
    },
    {
      "type": "Feature",
      "properties": {
        "name": "Bayview / Linda Brooks-Burton Branch",
        "address": "5075 3rd St, San Francisco, CA 94124",
        "hours": "Mon 10:00–18:00; Tue–Thu 10:00–20:00; Fri 13:00–18:00; Sat 10:00–18:00; Sun 13:00–17:00"
      },
      "geometry": {
        "type": "Point",
        "coordinates": [-122.3928, 37.7294]
      }
    },
    {
      "type": "Feature",
      "properties": {
        "name": "Bernal Heights Branch",
        "address": "500 Cortland Ave, San Francisco, CA 94110",
        "hours": "Mon & Thu 10:00–18:00; Tue 10:00–19:00; Wed 12:00–20:00; Fri 13:00–18:00; Sat 10:00–18:00; Sun 13:00–17:00"
      },
      "geometry": {
        "type": "Point",
        "coordinates": [-122.4146, 37.7428]
      }
    },
    {
      "type": "Feature",
      "properties": {
        "name": "Chinatown / Lai Branch",
        "address": "1135 Powell St, San Francisco, CA 94108",
        "hours": "Mon 13:00–18:00; Tue–Thu 10:00–20:00; Fri 13:00–18:00; Sat 10:00–18:00; Sun 13:00–17:00"
      },
      "geometry": {
        "type": "Point",
        "coordinates": [-122.4089, 37.7957]
      }
    },
    {
      "type": "Feature",
      "properties": {
        "name": "Excelsior Branch",
        "address": "4400 Mission St, San Francisco, CA 94112",
        "hours": "Mon 13:00–18:00; Tue–Thu 10:00–21:00; Fri 13:00–18:00; Sat 10:00–18:00; Sun 13:00–17:00"
      },
      "geometry": {
        "type": "Point",
        "coordinates": [-122.4258, 37.7215]
      }
    },
    {
      "type": "Feature",
      "properties": {
        "name": "Marina Branch",
        "address": "1890 Chestnut St, San Francisco, CA 94123",
        "hours": "Mon–Tue 10:00–18:00; Wed–Thu 13:00–20:00; Fri 13:00–18:00; Sat 10:00–18:00; Sun 13:00–17:00"
      },
      "geometry": {
        "type": "Point",
        "coordinates": [-122.4424, 37.8020]
      }
    },
    {
      "type": "Feature",
      "properties": {
        "name": "Richmond / Sen. Milton Marks Branch",
        "address": "351 9th Ave, San Francisco, CA 94118",
        "hours": "Mon 13:00–18:00; Tue–Thu 10:00–20:00; Fri 13:00–18:00; Sat 10:00–18:00; Sun 13:00–17:00"
      },
      "geometry": {
        "type": "Point",
        "coordinates": [-122.4677, 37.7817]
      }
    }
  ]
}
